[{"name":"Gustav","address":"nano_3ijx84fwc85d9k6pxrasjjji5m5juw8u16k8qjo3nuezhmmqyaqji4gn5cp4","created":"February 14, 2024","expires":"February 14, 2026","created_unix":1707898909,"expires_unix":1771057260},{"name":"Lotto","address":"nano_37y6iq8m1zx9inwkkcgqh34kqsihzpjfwgp9jir8xpb9jrcwhkmoxpo61f4o","created":"February 12, 2024","expires":"February 12, 2029","created_unix":1707761577,"expires_unix":1865614320},{"name":"Nanopoly","address":"nano_1bank1q3q7x8rimo3hf6qu6ezq3fmtximyt8kggtfaosg8kyr51qsdkm8g45","created":"February 12, 2024","expires":"February 12, 2029","created_unix":1707761431,"expires_unix":1865614200,"for_sale":0},{"name":"Nyanogifs","address":"nano_1k16e715bxsh3drktgwncp1xch9d6f5ejnox68jubemsd7g7n5msikx1uedm","created":"February 3, 2024","expires":"February 3, 2026","created_unix":1706978941,"expires_unix":1770137340},{"name":"Day","address":"nano_3hr3ot6pjio6kwfkcs969rubpgktkf6jg3zwdcbb391hpwiz4bdkha3zgsac","created":"January 22, 2024","expires":"January 22, 2034","created_unix":1705947863,"expires_unix":2021566980},{"name":"Ekd","address":"nano_37y6iq8m1zx9inwkkcgqh34kqsihzpjfwgp9jir8xpb9jrcwhkmoxpo61f4o","created":"January 18, 2024","expires":"January 18, 2025","created_unix":1705559233,"expires_unix":1737181560},{"name":"AJ","address":"nano_3zi3mfeyhikjqwochqixt99f5kdotaqang5x5qq4equej8co9s9pfxh4fkwo","created":"January 18, 2024","expires":"January 18, 2034","created_unix":1705558569,"expires_unix":2021177700},{"name":"Benh","address":"nano_1w314fj1o3jzoaszytfp16o3hfnyh6nppszrbmybeexfo1tm8js8n1fo1uto","created":"January 17, 2024","expires":"January 17, 2026","created_unix":1705519948,"expires_unix":1768678320},{"name":"Jxjay","address":"nano_1mzj3fbr1yx4if3r9wfpuksztwnzzywy1j9p7qfi9yjjcdgf7x81wzczkfrp","created":"January 17, 2024","expires":"January 17, 2034","created_unix":1705503562,"expires_unix":2021122680},{"name":"Protocol_fund","address":"nano_3fundme3zgwcezey4wo1auae1o16yjds7gw8f9bpke4hrzks966i5qpkycxw","created":"January 17, 2024","expires":"January 17, 2025","created_unix":1705487947,"expires_unix":1737110280,"title":"Community Protocol Fund","github":"https://github.com/dsiganos","website":"https://github.com/nanocurrency/nano-node","metadata":"plans=Supporter:10,Advocate:50,Champion:100,Hero:200,Visionary:500,Legend:1000","goal_ui":""},{"name":"O","address":"nano_1neebqac78jt7hamcp5y8bm9nhjkp66k7obuxsq4ocgjdgyj5d4bouy1camw","created":"January 13, 2024","expires":"January 13, 2025","created_unix":1705187463,"expires_unix":1736809800},{"name":"Blockracer","address":"nano_1xno5fdkdrbxrwkdhmjp4ah9oxg49qkdy3d491ge3tywyqyt87ubwygq8m7k","created":"January 6, 2024","expires":"January 6, 2034","created_unix":1704571167,"expires_unix":2020190340},{"name":"Audiala","address":"nano_1sg1znsh1814aumtxkjcdy4g4xkb77wmfeijyh3i1t84ohn34gesnr33areg","created":"January 5, 2024","expires":"January 5, 2029","created_unix":1704466537,"expires_unix":1862319300},{"name":"Melody","address":"nano_1br5f8fehhij8odsutq7yat4o6w5usdprmd56nhhra9u3r77dk85cehis7jz","created":"January 2, 2024","expires":"January 2, 2025","created_unix":1704250770,"expires_unix":1735873140},{"name":"JB","address":"nano_3bdim5jtn7bfoxxe63z4p1d9rce6ezxy9i48q1m587c3htzgi7pc745r64d6","created":"December 31, 2023","expires":"December 31, 2024","created_unix":1704030124,"expires_unix":1735652520},{"name":"Faultykids","address":"nano_1orzstooh8upueyc4hhjsde8cgbrrrpgkoueiczn6py8s7swg8nywhou31bp","created":"December 31, 2023","expires":"December 31, 2025","created_unix":1704014138,"expires_unix":1767172500},{"name":"3WM","address":"nano_33kpth4xzer9e539co5drgrcwcdxw815qu3qnwjsxwj6jomnchr7fr1w8u6n","created":"December 30, 2023","expires":"December 30, 2025","created_unix":1703993927,"expires_unix":1767152280,"title":"3WM","donation_address":"nano_33kpth4xzer9e539co5drgrcwcdxw815qu3qnwjsxwj6jomnchr7fr1w8u6n"},{"name":"AIT","address":"nano_33kpth4xzer9e539co5drgrcwcdxw815qu3qnwjsxwj6jomnchr7fr1w8u6n","created":"December 30, 2023","expires":"December 30, 2025","created_unix":1703993774,"expires_unix":1767152160},{"name":"Ashley","address":"nano_3grzgfxm6cnb41hqrq68uqsz6e1rowsioqz83uaw6p1qq8nkkq9o1i94cgob","created":"December 30, 2023","expires":"December 30, 2033","created_unix":1703993446,"expires_unix":2019612600},{"name":"ParkPlace","address":"nano_3grzgfxm6cnb41hqrq68uqsz6e1rowsioqz83uaw6p1qq8nkkq9o1i94cgob","created":"December 30, 2023","expires":"December 30, 2024","created_unix":1703993393,"expires_unix":1735615740},{"name":"ReadingRailroad","address":"nano_3w5pngxcupzxfwbc7cq9parye8ds7rri9qqo4quu9q311m78hg6dhsf7chnd","created":"December 30, 2023","expires":"December 30, 2025","created_unix":1703980497,"expires_unix":1767138840},{"name":"Jail","address":"nano_17w55sq7heecxnh7j95cuex5z4amrkhmtmmpw74cbapxqryaac9kcoazqoob","created":"December 30, 2023","expires":"December 30, 2025","created_unix":1703980271,"expires_unix":1767138660},{"name":"Wenano","address":"nano_3d3dko5uuywwb6xkftti7538sz7jiqhrg4u9m3cbi1mzsrched8otni9fdnt","created":"December 30, 2023","expires":"December 30, 2028","created_unix":1703979256,"expires_unix":1861832040},{"name":"IllinoisAvenue","address":"nano_1tm8uqu1xcwjorwaoq6j9rqt96f44qmd64daq4dpd3kt6q9dx5mrr5f3e4xd","created":"December 30, 2023","expires":"December 30, 2028","created_unix":1703950295,"expires_unix":1861803060},{"name":"Bram","address":"nano_1ir8k6j14jha61qbdaoz5pzhrtmk3etopibnnhgjarw1bx4orzarxhtscnpe","created":"December 30, 2023","expires":"December 30, 2028","created_unix":1703915583,"expires_unix":1861768380},{"name":"BD","address":"nano_3kg8rckbt6q68c4z8i1s3kr1fpdr7iys5ozyh8151qujuewqiwwqbsdd6xy5","created":"December 30, 2023","expires":"December 30, 2028","created_unix":1703915437,"expires_unix":1861768200},{"name":"911","address":"nano_3grzgfxm6cnb41hqrq68uqsz6e1rowsioqz83uaw6p1qq8nkkq9o1i94cgob","created":"December 29, 2023","expires":"December 29, 2024","created_unix":1703898340,"expires_unix":1735520700},{"name":"StJamesPlace","address":"nano_3qwhongd8wmiqdgkujai7kqj7wjcz5c5ud8syu8uqwoiu7ycdnjcwco6ou8n","created":"December 29, 2023","expires":"December 29, 2025","created_unix":1703896066,"expires_unix":1767054420,"title":"St. James Place","metadata":"https://www.teamtoyboxes.com.au/wp-content/uploads/2019/09/st-james-place.jpg","for_sale":"","website":""},{"name":"Brazy","address":"nano_1ifuhnyn5ig4ac4or5pgf7bcizc7cuy5jcj5rfhexyc7z3mnqsjg44matpr5","created":"December 29, 2023","expires":"December 29, 2024","created_unix":1703893131,"expires_unix":1735515480,"title":"Brazy","github":"BrazyDevelopment","twitter":"RealBrazyUK","location":"United Kingdom, Europe","website":"https://armour.dev","goal_ui":"100000:Lambo","metadata":"https://pbs.twimg.com/media/GCjpPV2WoAE_Ddo?format=jpg&name=medium"},{"name":"Broccoli","address":"nano_1ifuhnyn5ig4ac4or5pgf7bcizc7cuy5jcj5rfhexyc7z3mnqsjg44matpr5","created":"December 29, 2023","expires":"December 29, 2024","created_unix":1703892785,"expires_unix":1735515180,"title":"I am Broccoli. Broccoli is love. Broccoli is life.","twitter":"Armour_Hosting","location":"Planted in the ground.","website":"https://i.pinimg.com/736x/82/bb/0a/82bb0a6db2a435585edc6e7e9e7b3907.jpg","for_sale":"133","goal_ui":"10000:Broccoli Harvest","metadata":"https://pbs.twimg.com/media/GCZp5p-WkAEqxjf?format=jpg&name=4096x4096"},{"name":"Fast","address":"nano_1ifuhnyn5ig4ac4or5pgf7bcizc7cuy5jcj5rfhexyc7z3mnqsjg44matpr5","created":"December 29, 2023","expires":"December 29, 2024","created_unix":1703892113,"expires_unix":1735514460,"title":"Fast - FOR SALE","for_sale":"133","goal_ui":"100:I become fast as fk boi."},{"name":"Abc","address":"nano_3grzgfxm6cnb41hqrq68uqsz6e1rowsioqz83uaw6p1qq8nkkq9o1i94cgob","created":"December 29, 2023","expires":"December 29, 2024","created_unix":1703891895,"expires_unix":1735514280},{"name":"007","address":"nano_3grzgfxm6cnb41hqrq68uqsz6e1rowsioqz83uaw6p1qq8nkkq9o1i94cgob","created":"December 29, 2023","expires":"December 29, 2024","created_unix":1703891830,"expires_unix":1735514220},{"name":"Lol","address":"nano_3grzgfxm6cnb41hqrq68uqsz6e1rowsioqz83uaw6p1qq8nkkq9o1i94cgob","created":"December 29, 2023","expires":"December 29, 2024","created_unix":1703891703,"expires_unix":1735514100},{"name":"Hi","address":"nano_3grzgfxm6cnb41hqrq68uqsz6e1rowsioqz83uaw6p1qq8nkkq9o1i94cgob","created":"December 29, 2023","expires":"December 29, 2024","created_unix":1703891674,"expires_unix":1735514040},{"name":"Lee","address":"nano_1ifuhnyn5ig4ac4or5pgf7bcizc7cuy5jcj5rfhexyc7z3mnqsjg44matpr5","created":"December 29, 2023","expires":"December 29, 2024","created_unix":1703891582,"expires_unix":1735513980},{"name":"Q","address":"nano_3grzgfxm6cnb41hqrq68uqsz6e1rowsioqz83uaw6p1qq8nkkq9o1i94cgob","created":"December 29, 2023","expires":"December 29, 2024","created_unix":1703889992,"expires_unix":1735512360},{"name":"I","address":"nano_3grzgfxm6cnb41hqrq68uqsz6e1rowsioqz83uaw6p1qq8nkkq9o1i94cgob","created":"December 29, 2023","expires":"December 29, 2024","created_unix":1703889927,"expires_unix":1735512300},{"name":"H","address":"nano_3grzgfxm6cnb41hqrq68uqsz6e1rowsioqz83uaw6p1qq8nkkq9o1i94cgob","created":"December 29, 2023","expires":"December 29, 2024","created_unix":1703889895,"expires_unix":1735512240},{"name":"F","address":"nano_3grzgfxm6cnb41hqrq68uqsz6e1rowsioqz83uaw6p1qq8nkkq9o1i94cgob","created":"December 29, 2023","expires":"December 29, 2024","created_unix":1703889833,"expires_unix":1735512180},{"name":"E","address":"nano_3grzgfxm6cnb41hqrq68uqsz6e1rowsioqz83uaw6p1qq8nkkq9o1i94cgob","created":"December 29, 2023","expires":"December 29, 2024","created_unix":1703889367,"expires_unix":1735511760},{"name":"C","address":"nano_3grzgfxm6cnb41hqrq68uqsz6e1rowsioqz83uaw6p1qq8nkkq9o1i94cgob","created":"December 29, 2023","expires":"December 29, 2024","created_unix":1703888882,"expires_unix":1735511280},{"name":"Armour","address":"nano_18ihoozekip41qtoo6chioxosegfbyi36h39s9hhqmsubtm76m6mswgwdwyr","created":"December 29, 2023","expires":"January 29, 2024","created_unix":1703888526,"expires_unix":1706566920,"title":"Armour","github":"BrazyDevelopment","twitter":"Armour_Hosting","location":"Europe","website":"https://armour-hosting.com","goal_ui":"1000:PR Node Giveaway!","metadata":"https://pbs.twimg.com/media/GCjwZ3dWEAA7HzW?format=jpg&name=large"},{"name":"Newyorkavenue","address":"nano_3w5pngxcupzxfwbc7cq9parye8ds7rri9qqo4quu9q311m78hg6dhsf7chnd","created":"December 29, 2023","expires":"January 29, 2029","created_unix":1703885709,"expires_unix":1864357200,"title":"NewYorkAvenue","for_sale":"134000000"},{"name":"Jonas","address":"nano_1p3scbrckw4143zojteqh1psatkxu5onfeffw7jz39bgas64354raqkdwyz9","created":"December 28, 2023","expires":"December 28, 2028","created_unix":1703751556,"expires_unix":1861604340},{"name":"Adam","address":"nano_33kpth4xzer9e539co5drgrcwcdxw815qu3qnwjsxwj6jomnchr7fr1w8u6n","created":"December 28, 2023","expires":"December 28, 2025","created_unix":1703748243,"expires_unix":1766906640},{"name":"Adamantem","address":"nano_33kpth4xzer9e539co5drgrcwcdxw815qu3qnwjsxwj6jomnchr7fr1w8u6n","created":"December 28, 2023","expires":"December 28, 2025","created_unix":1703745648,"expires_unix":1766904000,"title":"Adamantem","twitter":"@1adamantem1","mastodon":"","location":"Someplace In Time And Space","website":"https://nanswap.com/art/account","rep_address":"nano_33kpth4xzer9e539co5drgrcwcdxw815qu3qnwjsxwj6jomnchr7fr1w8u6n","donation_address":"nano_33kpth4xzer9e539co5drgrcwcdxw815qu3qnwjsxwj6jomnchr7fr1w8u6n"},{"name":"Flying_amigos","address":"nano_1pwjmzaw5grxsxqrdc596cxhk6uaor1u7kis6efknsgi8qti158r3j8n8h3r","created":"December 27, 2023","expires":"December 27, 2033","created_unix":1703727683,"expires_unix":2019346860},{"name":"Jedimindtricc","address":"nano_1apqayimuma1wtqrihogfktd1b8k9er9x1ssczb47977d3wqw3bs33z9aqpg","created":"December 27, 2023","expires":"December 27, 2028","created_unix":1703726030,"expires_unix":1861578780},{"name":"Nyanocats","address":"nano_1t4qeqj8br1tuk5uctsofhiawy855tfh9wxb79y7ntptwdfjasydkgqxjfke","created":"December 26, 2023","expires":"December 26, 2033","created_unix":1703645021,"expires_unix":2019264180,"metadata":"https://nano.to/dist/hosted/nyanocats.gif"},{"name":"Alex","address":"nano_3dq4grwui66g1ttn4gk98dobak55xnw3db5kiiju1ch3iaqrn8h9xtbkdfyn","created":"December 26, 2023","expires":"December 26, 2025","created_unix":1703597047,"expires_unix":1766755440},{"name":"Name","address":"nano_1name191y1bqcbh5r9xz4a9gk1r54aerf7rd4ngubwr8gckojxosjfch53bx","created":"December 25, 2023","expires":"December 25, 2028","created_unix":1703546881,"expires_unix":1861399680,"github":"nano2dev","twitter":"nano2dev"},{"name":"Nandalorian","address":"nano_1qbqyp1rheyk3bhtxp67x7wrnh5ghung7p1tzujsfyim7uo8trsd4dn7dbww","created":"December 25, 2023","expires":"December 25, 2025","created_unix":1703546073,"expires_unix":1766704440},{"name":"Fox","address":"nano_1foxedxp8h9j9o3z5sz5zytjaaxwn3q8e9bhe5wm3g6ujnggd1zb67ptjc5b","created":"December 25, 2023","expires":"December 25, 2025","created_unix":1703541455,"expires_unix":1766699820,"twitter":"https://twitter.com/MonsieurReynard"},{"name":"Nalli","address":"nano_3w5pngxcupzxfwbc7cq9parye8ds7rri9qqo4quu9q311m78hg6dhsf7chnd","created":"December 25, 2023","expires":"January 25, 2029","created_unix":1703540083,"expires_unix":1864011600},{"name":"Kristofer","address":"nano_3w5pngxcupzxfwbc7cq9parye8ds7rri9qqo4quu9q311m78hg6dhsf7chnd","created":"December 23, 2023","expires":"December 23, 2028","created_unix":1703368261,"expires_unix":1861221000},{"name":"K","address":"nano_3w5pngxcupzxfwbc7cq9parye8ds7rri9qqo4quu9q311m78hg6dhsf7chnd","created":"December 23, 2023","expires":"December 23, 2028","created_unix":1703368145,"expires_unix":1861220940},{"name":"B","address":"nano_3uct7fjjxg87ccg3n6dtx51hk7ekjkz79ihd7pdsasp6qzo9pim6fcy1jh66","created":"December 22, 2023","expires":"December 22, 2028","created_unix":1703259937,"expires_unix":1861112700},{"name":"Ash","address":"nano_3grzgfxm6cnb41hqrq68uqsz6e1rowsioqz83uaw6p1qq8nkkq9o1i94cgob","created":"December 22, 2023","expires":"December 22, 2033","created_unix":1703257305,"expires_unix":2018876460},{"name":"Celio","address":"nano_3e7z39bekxu6w5zyabuhpci7a16zt4dzgaqdem8suz85jntbyqursz65jf7q","created":"December 22, 2023","expires":"December 22, 2024","created_unix":1703256055,"expires_unix":1734878400,"title":"Software Developer","github":"https://github.com/WriteNaN","twitter":"https://twitter.com/CelioSevii","location":"Mars"},{"name":"G","address":"nano_3saph6kmg7s7jc8jqkut3t4o9riyit6yx9hheoy3hjb87nbfdt3uth6kstxn","created":"December 22, 2023","expires":"December 22, 2033","created_unix":1703255088,"expires_unix":2018874240},{"name":"D","address":"nano_3a1wnhir8gcxnqxrpydhqp888hgex39iqrr3sps1iaprncpj5yazmwt79umc","created":"December 3, 2023","expires":"December 3, 2033","created_unix":1701599145,"expires_unix":2017218300},{"name":"Carlos","address":"nano_1bxw1qgnddcifsgtyx4e6eahzg8u3z46ngt1zc8jmnmb6h9kfiq7k1qhy4xc","created":"November 27, 2023","expires":"November 28, 2029","created_unix":1701109485,"expires_unix":1890536400,"github":"murgascarrillo","twitter":"murgascarrillo","mastodon":"https://col.social/@murgascarrillo","website":"murgascarrillo.com","title":"Consultant & Detective","donation_address":"nano_3ksoyokin5hp94k7ermn98bk8fouanxpyw3rtxx9kt6zai85b5sbapgienxd"},{"name":"Stickers","address":"nano_37y6iq8m1zx9inwkkcgqh34kqsihzpjfwgp9jir8xpb9jrcwhkmoxpo61f4o","created":"November 22, 2023","expires":"November 22, 2025","created_unix":1700695335,"expires_unix":1763853720},{"name":"Malikai","address":"nano_3xwgsrfbai3wgrt4bn5aba8tdhnds19gr73baobxtc5wra1gapanw9kmjf37","created":"November 18, 2023","expires":"November 18, 2028","created_unix":1700327838,"expires_unix":1858180620,"twitter":"Malikai "},{"name":"Connyb","address":"nano_1s4i4mryr1pufyhjmo9z986uod8ydhbkicrmjfsbd35xammoxh91t6ru8dbr","created":"November 16, 2023","expires":"November 16, 2025","created_unix":1700187527,"expires_unix":1763345880},{"name":"Matti","address":"nano_3wywy8w6e5y37edxdd1yuh1pprj7e9c8kza8d5inej6xswge619bihoot9hm","created":"November 11, 2023","expires":"November 11, 2028","created_unix":1699695975,"expires_unix":1857548760},{"name":"AçãoRestauracionista","address":"nano_3ioxkxrn33o6uh5ay3aj3hfouwzjcbkpr3w3unrc6s4u3b4asz6a8j86meo7","created":"November 4, 2023","expires":"November 4, 2028","created_unix":1699091952,"expires_unix":1856944740},{"name":"Twitch","address":"nano_37y6iq8m1zx9inwkkcgqh34kqsihzpjfwgp9jir8xpb9jrcwhkmoxpo61f4o","created":"October 28, 2023","expires":"October 28, 2028","created_unix":1698539586,"expires_unix":1856392380,"github":"Nano2dev","metadata":"Coming Soon","title":"Nano.to Twitch"},{"name":"Tomdavenport","address":"nano_1x5i6ncur6kk7ec5q4omysrmrt65myjgw3rh5gjd1q5sebsfkz5f7sbxckbu","created":"October 28, 2023","expires":"October 28, 2028","created_unix":1698524370,"expires_unix":1856377140},{"name":"Mads","address":"nano_14oumq9u6mbqffcem6rkarsho3hndaccwhyphsikentgi3e33w4da1c6dnst","created":"October 28, 2023","expires":"October 28, 2028","created_unix":1698524365,"expires_unix":1856377140},{"name":"Nudge","address":"nano_3nunzyd37yy15h1em194b8yrdsupg6cjmda9w444c34xebdwhsfon55z5gsu","created":"October 28, 2023","expires":"October 28, 2025","created_unix":1698518370,"expires_unix":1761676740,"title":"Documenting Crypto Adoption Worldwide","twitter":"@TheNudge4","website":"https://www.odysee.com/@nudge:4"},{"name":"Boardwalk","address":"nano_1bank1q3q7x8rimo3hf6qu6ezq3fmtximyt8kggtfaosg8kyr51qsdkm8g45","created":"October 28, 2023","expires":"October 28, 2025","created_unix":1698517780,"expires_unix":1761676140,"for_sale":0},{"name":"Kit","address":"nano_3w5pngxcupzxfwbc7cq9parye8ds7rri9qqo4quu9q311m78hg6dhsf7chnd","created":"October 28, 2023","expires":"October 28, 2033","created_unix":1698512023,"expires_unix":2014131180,"metadata":"syncope.01-twirl@icloud.com","twitter":"@KitKristofer"},{"name":"Jade","address":"nano_3kenn3ae3dsb1h4ni5uemd6yyhs3dj46swrgotma3qe36b17fmp7wjcaedfm","created":"October 28, 2023","expires":"October 28, 2028","created_unix":1698510985,"expires_unix":1856363760,"title":"Dyllux's","twitter":"https://twitter.com/DylluxK?t=8lRJJx_3lbs8wqOuMsdShA&s=09","mastodon":"https://xno.social/@Dyllux","for_sale":"100","metadata":"","donation_address":"nano_3kenn3ae3dsb1h4ni5uemd6yyhs3dj46swrgotma3qe36b17fmp7wjcaedfm"},{"name":"Kenneth","address":"nano_3kenn3ae3dsb1h4ni5uemd6yyhs3dj46swrgotma3qe36b17fmp7wjcaedfm","created":"October 28, 2023","expires":"October 28, 2028","created_unix":1698510916,"expires_unix":1856363700,"title":"Dyllux's ","twitter":"https://twitter.com/DylluxK?t=8lRJJx_3lbs8wqOuMsdShA&s=09","mastodon":"https://xno.social/@Dyllux","for_sale":"100","donation_address":"nano_3kenn3ae3dsb1h4ni5uemd6yyhs3dj46swrgotma3qe36b17fmp7wjcaedfm"},{"name":"Bedlam520","address":"nano_313od9rtdb4pitidf9ff9sjtf4teobfmu9mc5nrsxrwwoeoq8q4dko64as36","created":"October 28, 2023","expires":"October 28, 2024","created_unix":1698505191,"expires_unix":1730127540},{"name":"Holger","address":"nano_11jnuodx48ukw9fxx9nrs3dhu36u5wpez8swtdj654y5wbdwoyj38qsf9skf","created":"October 28, 2023","expires":"October 28, 2028","created_unix":1698505163,"expires_unix":1856357940},{"name":"00","address":"nano_3i9twqnw5eqte1hhgg34aojnaibqsdntni479eat78pphr7qe3i5s6zdphtx","created":"October 28, 2023","expires":"October 28, 2033","created_unix":1698504604,"expires_unix":2014123800},{"name":"Moncho","address":"nano_1jdzbjcbubz8npskgcrp5mj6x1jh3m3ptnokj4qnopzc7x33rh1n95nwgmrr","created":"October 28, 2023","expires":"October 28, 2028","created_unix":1698494607,"expires_unix":1856347380,"twitter":"xmonram"},{"name":"03","address":"nano_158j54titwo6xy14i8zzf9i7djt3y5dkxwmsmsweadh5wom1phokh9kpf56a","created":"October 20, 2023","expires":"October 20, 2025","created_unix":1697818549,"expires_unix":1760976900,"title":"lafrenieree","for_sale":"","nostr_public_key":"npub1kznny8vxcr5whx2gkn6xx4ad5jjfrqcgheea35w3kldffwhfh2uqklanf9"},{"name":"1","address":"nano_1mmetyz9ytkh5poy6rskjp4qqwuma3o8a7dbw3q7yaeg1ip3dh3padpgz5sa","created":"October 8, 2023","expires":"October 8, 2028","created_unix":1696738659,"expires_unix":1854591420},{"name":"God","address":"nano_1mmetyz9ytkh5poy6rskjp4qqwuma3o8a7dbw3q7yaeg1ip3dh3padpgz5sa","created":"October 7, 2023","expires":"October 7, 2024","created_unix":1696737556,"expires_unix":1728359940},{"name":"Eli","address":"nano_1hcbxih53x614db1c5r6qdxhupihpxs1yhugr7z863k11wz41p3uh15gdj85","created":"October 7, 2023","expires":"October 7, 2025","created_unix":1696720100,"expires_unix":1759878480},{"name":"Steamdeck","address":"nano_3wroiqxabw415bpphso9a1fwafzw1kgx4z6make5zmji9wysx1n5fa8gfoao","created":"September 3, 2023","expires":"September 3, 2024","created_unix":1693768196,"expires_unix":1725390540},{"name":"Turk4life","address":"nano_3p6dsap9mzjpm1ynszush3yqdhmj7ka4stns194edt8ahkp3nj3ubefps3on","created":"August 24, 2023","expires":"August 24, 2024","created_unix":1692853307,"expires_unix":1724475660},{"name":"Runescape","address":"nano_1rune53mf39145dcy8i6otiyje5ewmmzaxxeixutx8xtosgqyzkdy3pnxjs1","created":"August 20, 2023","expires":"August 20, 2024","created_unix":1692575981,"expires_unix":1724198340,"github":"nano2dev","twitter":"nano2dev","mastodon":"xno.social/@nano2dev","goal_ui":"800:Add Nano to 2009Scape","metadata":"Gotta Lumbridge somewhere. ","title":"Add Nano to Runescape Fund"},{"name":"Jonathan","address":"nano_3b9a41sja6wc8czo77kzy3gpypabdhc9kb4aranr8fuxrqbpiqjhsy8pek5f","created":"August 16, 2023","expires":"August 16, 2033","created_unix":1692206476,"expires_unix":2007825660},{"name":"Fortune","address":"nano_1hcbxih53x614db1c5r6qdxhupihpxs1yhugr7z863k11wz41p3uh15gdj85","created":"August 13, 2023","expires":"August 13, 2024","created_unix":1691930094,"expires_unix":1723552440},{"name":"Nick","address":"nano_3t6tpgbehiiteokyjcxk1cobx38yn6qd54xretk4gdie88hr88u1ubnh7upm","created":"August 8, 2023","expires":"September 8, 2033","created_unix":1691528672,"expires_unix":2009764800},{"name":"Arena","address":"nano_1arenasufjzqqo3kiopui6jtrp5yhdhd4hzps71jaap6qs8syzxy4k4c34nr","created":"August 8, 2023","expires":"August 8, 2033","created_unix":1691527989,"expires_unix":2007147180},{"name":"ElonMusk","address":"nano_3giutise3cw97ahkke1rr9439efkzoonmq95gzebp4smqgtabz8egztypxgi","created":"August 5, 2023","expires":"August 5, 2028","created_unix":1691244830,"expires_unix":1849097580},{"name":"Nanogarden","address":"nano_1ice3riksnphirfg4zbnnprcf74xz79zuiswht4xxtcgskdznaj7whbeirnt","created":"July 30, 2023","expires":"July 30, 2033","created_unix":1690745015,"expires_unix":2006364180,"title":"nano.garden","goal_ui":"10:Monthly Hosting","website":"https://nano.garden","github":"https://github.com/nanogarden"},{"name":"Max","address":"nano_3dbnbkjhpi5zq43n8eskbfog98s6uexxyhdjf67ufgrtkdx7fr9pw1563oe4","nostr_public_key":"df34162959de32d09669c39b2c900b915b57d59036b20946ad543b695c1f6db0","created":"July 30, 2023","expires":"July 30, 2028","created_unix":1690741558,"expires_unix":1848594300},{"name":"MyEcoria","address":"nano_3ktmq6dpwcc694hrnjzfdykbqeuj4w5w8nut3uqm5pgwa4m9jmstoc4ntu6p","created":"July 29, 2023","expires":"July 29, 2028","created_unix":1690634483,"expires_unix":1848487260},{"name":"SatoshiNakamoto","address":"nano_1hbf5yxhk8mzydhe4m8u3nhiimcann8desdkiccqzympi4bwjh3stmw5ckbu","created":"July 28, 2023","expires":"July 28, 2028","created_unix":1690561460,"expires_unix":1848414240},{"name":"Yyimy","address":"nano_1hbf5yxhk8mzydhe4m8u3nhiimcann8desdkiccqzympi4bwjh3stmw5ckbu","created":"July 28, 2023","expires":"July 28, 2028","created_unix":1690561372,"expires_unix":1848414120},{"name":"OG","address":"nano_1hbf5yxhk8mzydhe4m8u3nhiimcann8desdkiccqzympi4bwjh3stmw5ckbu","created":"July 28, 2023","expires":"July 28, 2028","created_unix":1690560036,"expires_unix":1848412800},{"name":"Sparrow","address":"nano_1gqwww84fw9ke6oz6jj3gocbtokd31wj9hz46cqx7h6b644zgje8343fwwdu","created":"July 27, 2023","expires":"July 27, 2025","created_unix":1690465204,"expires_unix":1753623600},{"name":"𝕏","address":"nano_1hcbxih53x614db1c5r6qdxhupihpxs1yhugr7z863k11wz41p3uh15gdj85","created":"July 26, 2023","expires":"July 26, 2024","created_unix":1690376336,"expires_unix":1721998680,"for_sale":"100"},{"name":"Light","address":"nano_3wroiqxabw415bpphso9a1fwafzw1kgx4z6make5zmji9wysx1n5fa8gfoao","created":"July 22, 2023","expires":"July 22, 2024","created_unix":1690071860,"expires_unix":1721694180},{"name":"Law","address":"nano_1hk7tidf9yp6z37pbqysbfo89e3yhm3m1dnxfeyzospsw8zntmjmo43w1e13","created":"July 19, 2023","expires":"July 19, 2028","created_unix":1689793718,"expires_unix":1847646480},{"name":"Emrakul","address":"nano_33hbpqppiff1dhpi4kf79nfpgi8ywya6krsmn9pif7qq91yhkarrwkomn7gr","created":"July 16, 2023","expires":"July 16, 2028","created_unix":1689542289,"expires_unix":1847395080},{"name":"User","address":"nano_1xno5fdkdrbxrwkdhmjp4ah9oxg49qkdy3d491ge3tywyqyt87ubwygq8m7k","created":"July 13, 2023","expires":"July 13, 2025","created_unix":1689243236,"expires_unix":1752401580},{"name":"Jeep","address":"nano_37y6iq8m1zx9inwkkcgqh34kqsihzpjfwgp9jir8xpb9jrcwhkmoxpo61f4o","created":"July 12, 2023","expires":"July 12, 2024","created_unix":1689179743,"expires_unix":1720802100},{"name":"4k","address":"nano_37y6iq8m1zx9inwkkcgqh34kqsihzpjfwgp9jir8xpb9jrcwhkmoxpo61f4o","created":"July 12, 2023","expires":"July 12, 2024","created_unix":1689179526,"expires_unix":1720801920},{"name":"Bob","address":"nano_1imfns845ibphkhkeif6gbisnsqttowxy8o8419zu1e8yxqd148hi3bnfodj","created":"July 3, 2023","expires":"July 3, 2024","created_unix":1688406008,"expires_unix":1720028400},{"name":"Corican","address":"nano_1oqiq4pwx1yun94xg3zyzsnosep4ro7tzqud1wgc9w7osw9quuzuprnwkb4s","created":"July 2, 2023","expires":"July 2, 2028","created_unix":1688349679,"expires_unix":1846202460},{"name":"NanoMagic","address":"nano_1335owogbe19axaki7gcxoxy3dyq1ysxxoq76xnri18et4r3b7tdejp9wrdf","created":"June 25, 2023","expires":"June 25, 2024","created_unix":1687688759,"expires_unix":1719311100},{"name":"Paypur_node","lowercase":true,"address":"nano_15zntj4a8r6bkihei788ciy1jgc5wnskan1gpgn8e8jku3r4qhr7rwifitir","created":"June 23, 2023","expires":"June 23, 2025","created_unix":1687572020,"expires_unix":1750730400},{"name":"Benlo_0","address":"nano_3hpttckdogznioyt9k1u7ma4njb8q4xjuu1fyi39n8jdzfqkmjn4t6euna87","created":"June 22, 2023","expires":"June 22, 2033","created_unix":1687443788,"expires_unix":2003062980},{"name":"Hope","address":"nano_1hcbxih53x614db1c5r6qdxhupihpxs1yhugr7z863k11wz41p3uh15gdj85","created":"June 14, 2023","expires":"July 14, 2024","created_unix":1686792137,"expires_unix":1720929600},{"name":"Luxbe","address":"nano_38oxfgar3p43su3ruh3fk53uywquwp78g4hbdzkyyrq5krmyct8mxhixrbq6","created":"June 11, 2023","expires":"June 11, 2028","created_unix":1686510482,"expires_unix":1844363280},{"name":"Danjo","address":"nano_3wxogcj6yntsbkczip4c7ty9f3o5dboo8ek359upf31ty76isphphcqbegc8","created":"June 10, 2023","expires":"June 10, 2028","created_unix":1686430397,"expires_unix":1844283180},{"name":"CryptoManiac","twitter":"CrypttoManiac_","address":"nano_1ci3uxatt11g7omchdtenhiegacioc7ap379axxca4hbqgx3bde86xe8wnm3","created":"June 6, 2023","expires":"July 6, 2023","created_unix":1686052642,"expires_unix":1688644620},{"name":"Asdh","address":"nano_31c9kzitqgcqtm9rh5r8dr8iugsqmsmntx6y1ofj75dc9r6bqp4aheinsgzr","created":"May 27, 2023","expires":"May 27, 2024","created_unix":1685234524,"expires_unix":1716856920},{"name":"Nault","address":"nano_31c9kzitqgcqtm9rh5r8dr8iugsqmsmntx6y1ofj75dc9r6bqp4aheinsgzr","created":"May 27, 2023","expires":"May 28, 2026","created_unix":1685232545,"expires_unix":1779940800},{"name":"Matthew","address":"nano_13c3rxn6jce3e1cwhbqsd7razmw9uqhztjw7c41r3qs5c1qsad1trsz357yx","created":"May 26, 2023","expires":"May 26, 2025","created_unix":1685124995,"expires_unix":1748283360},{"name":"Daniel","address":"nano_3f55x7n8azbjqswo4mne4osbp4oe3g3umah4sqgw3wk9mk1gs5416jp9nsk6","created":"May 25, 2023","expires":"May 25, 2033","created_unix":1684999864,"expires_unix":2000619060},{"name":"Trapperjohn","address":"nano_1ukerthrqbx7tz3fsxqnkwx77rqe1zkm3dfortexqkyftqfmfh5qhpaauhb6","created":"May 25, 2023","expires":"May 25, 2025","created_unix":1684990518,"expires_unix":1748148900},{"name":"Cmpnz","address":"nano_38f6q97itiddcjus86wsk17r9axxwwiq5ckjw7uefu3pmaa157zzihrj99yw","created":"May 25, 2023","expires":"May 25, 2025","created_unix":1684990396,"expires_unix":1748148780},{"name":"Dan","address":"nano_1ukerthrqbx7tz3fsxqnkwx77rqe1zkm3dfortexqkyftqfmfh5qhpaauhb6","created":"May 25, 2023","expires":"May 25, 2025","created_unix":1684990150,"expires_unix":1748148540},{"name":"Fntx","address":"nano_3fdqzd9pe55kpozg534kk1xskhybxy8ecjbc63ha7dx3o9nap84irgaqxd79","created":"May 24, 2023","expires":"May 24, 2025","created_unix":1684920117,"expires_unix":1748078460},{"name":"Matthijs","address":"nano_3cmo5qpkcfi9z44wtb1sbcwbzjgmy8ju7xaqk9xzjyaw8wogeqnrfwn4gxwg","created":"May 23, 2023","expires":"May 23, 2025","created_unix":1684882535,"expires_unix":1748040900},{"name":"Rpc","title":"Nano.to RPC Store","github":"nano2dev","website":"https://rpc.nano.to/#buy_rpc","website_button_only":"Shop RPC","website_button_required":"Email or API Key","address":"nano_1rpc19tpfzuotsk346bt674mehj96ju86n5xiop4o68mepqexf5f55xa7ycx","created":"May 20, 2023","expires":"May 20, 2025","created_unix":1684619709,"expires_unix":1747778100},{"name":"0","address":"nano_3i9twqnw5eqte1hhgg34aojnaibqsdntni479eat78pphr7qe3i5s6zdphtx","created":"May 19, 2023","expires":"May 19, 2033","created_unix":1684488689,"expires_unix":2000107860},{"name":"Localhost","address":"nano_31c9kzitqgcqtm9rh5r8dr8iugsqmsmntx6y1ofj75dc9r6bqp4aheinsgzr","created":"May 18, 2023","expires":"May 18, 2024","created_unix":1684458069,"expires_unix":1716080460},{"name":"Callback","address":"nano_31c9kzitqgcqtm9rh5r8dr8iugsqmsmntx6y1ofj75dc9r6bqp4aheinsgzr","created":"May 18, 2023","expires":"February 18, 2029","created_unix":1684455407,"expires_unix":1866085200},{"name":"Kopeboy","address":"nano_3qx5cz95xxpd5wsm9imggxpuxhpf5oupx14456ms5f5hn9qhyexiszfhshfb","created":"May 18, 2023","expires":"May 18, 2025","created_unix":1684402818,"expires_unix":1747561200},{"name":"Yocreoquesi","address":"nano_1paef1kyd5om36mpnn6a8bcwefewr4auaf6cks5j6wyx61d14nmuc4aa7hjf","created":"May 16, 2023","expires":"May 16, 2025","created_unix":1684220511,"expires_unix":1747378860},{"name":"Matt","address":"nano_1t865qgx1qf547dujmy7ehxnp5yqs67je1ao56np3j9tjkbnfrgidfhz7weq","created":"May 12, 2023","expires":"May 12, 2025","created_unix":1683912794,"expires_unix":1747071180},{"name":"Fraser","address":"nano_1thguu8ohs91afjhewknmci37ngcws5d15rjhaxrpudw6rdo6xosmiqzjtii","created":"May 11, 2023","expires":"May 11, 2025","created_unix":1683823167,"expires_unix":1746981540},{"name":"FairKing","address":"nano_1ebeg7sx9q53rbqit6ww3rbhw6ygj5insyxzsonsqhe9jk95u8f68wb6wzrb","created":"May 10, 2023","expires":"May 10, 2033","created_unix":1683728568,"expires_unix":1999347720},{"name":"Hd","address":"nano_1reason1q976g9wkrt69nux7konww46ux73c7xzm7jrm3w4kqdtigym6btq3","created":"May 9, 2023","expires":"May 9, 2024","created_unix":1683663601,"expires_unix":1715286000},{"name":"iko","address":"nano_1cryptocr1ns11inw4c1q3wnsi43r7ofnc4oa5az5y8iq1qoq76nk5jxzte5","created":"May 9, 2023","expires":"May 9, 2024","created_unix":1683640640,"expires_unix":1715263020},{"name":"2k","address":"nano_1cryptocr1ns11inw4c1q3wnsi43r7ofnc4oa5az5y8iq1qoq76nk5jxzte5","created":"May 9, 2023","expires":"May 9, 2024","created_unix":1683640325,"expires_unix":1715262720},{"name":"paypur","address":"nano_1paypur3bf9oawtbfcm4gqeekirjy37jw3ttfsidhxw99aky8auqwaf6na9q","created":"April 9, 2023","expires":"April 9, 2025","created_unix":1681028959,"expires_unix":1744172940},{"name":"cd","address":"nano_1bank1q3q7x8rimo3hf6qu6ezq3fmtximyt8kggtfaosg8kyr51qsdkm8g45","created":"April 7, 2023","expires":"May 7, 2024","created_unix":1680878991,"expires_unix":1715040000},{"name":"okke","address":"nano_395gcn7enzjpfjknufh17qcficpte33hb43s93u8w9r4smp4aiodhb46p17m","created":"April 7, 2023","expires":"April 7, 2024","created_unix":1680872413,"expires_unix":1712480400},{"name":"wheatley","address":"nano_395gcn7enzjpfjknufh17qcficpte33hb43s93u8w9r4smp4aiodhb46p17m","created":"April 7, 2023","expires":"April 7, 2024","created_unix":1680872313,"expires_unix":1712480280},{"status":"active","github":"takuoimoto","twitter":"takuoimoto","name":"takuoimoto","address":"nano_3qytaa8thdixq4je7ece4xuooqkmfjoywsreditso1ya59h9wogjqnrgsmxw","created":"April 7, 2023","expires":"April 8, 2023","created_unix":1680827475,"expires_unix":1680985860},{"name":"A","address":"nano_3rrfnepodhm86nsx6iu5sphjjrd7fyq81ojwf1gqnhkgtaw9zk5jq93sjxtf","created":"April 6, 2023","expires":"April 6, 2028","created_unix":1680819333,"expires_unix":1838657700},{"name":"santi","address":"nano_37e5derqsmhk1dwt84gsdy1jxkx3ycs8p45m4kx9qm9t85s1dedp4j1cjoqe","created":"April 6, 2023","expires":"April 6, 2024","created_unix":1680814975,"expires_unix":1712422920},{"name":"dev","address":"nano_3j4noexyq4efjhrzodbi6hzqxwq9hxxgwj7f9yd6qs9cfh5b34q3muea66gg","created":"April 6, 2023","expires":"April 6, 2024","created_unix":1680811663,"expires_unix":1712419620},{"name":"Madara","address":"nano_1bbdchjpyjyttu8yefzzdhmky94ixr7n4wn4axpd4ufg55ypkeox8qknk1re","created":"April 6, 2023","expires":"April 8, 2031","created_unix":1680811122,"expires_unix":1933387200},{"status":"active","github":"gpernelle","name":"gpernelle","address":"nano_1sg1znsh1814aumtxkjcdy4g4xkb77wmfeijyh3i1t84ohn34gesnr33areg","created":"April 6, 2023","expires":"April 8, 2023","created_unix":1680765590,"expires_unix":1680923940},{"name":"bot","address":"nano_1bot18r7zy58qom5y4byk9pgj31ofn5oedeuf8ninuzyjgunkp68rbyg5d5p","created":"March 17, 2023","expires":"March 17, 2024","created_unix":1679060334,"expires_unix":1710668280},{"name":"gr0vity","github":"gr0vity-dev","address":"nano_118tih7f81iiuujdezyqnbb9aonybf6y3cj7mo7hbeetqiymkn16a67w8rkp","created":"January 23, 2023","expires":"January 27, 2025","created_unix":1674459385,"expires_unix":1737954000},{"name":"my1","address":"nano_3xin68k391aepgwprg7tj4fts1qy49ximuci9bhehpojc9pzpkej9g6zbgym","created":"January 8, 2023","expires":"January 8, 2025","created_unix":1673201611,"expires_unix":1736359980,"title":"My1","github":"https://github.com/My1","twitter":"https://twitter.com/My1xT","mastodon":"https://nep.one/@my1","website":"https://blog.my1.dev","rep_address":"nano_1my1snode8rwccjxkckjirj65zdxo6g5nhh16fh6sn7hwewxooyyesdsmii3","donation_address":"nano_3xin68k391aepgwprg7tj4fts1qy49ximuci9bhehpojc9pzpkej9g6zbgym"},{"name":"x","address":"nano_3banannooopfbie7zxbq75h9ug6gdxb5xugfpap78g65q6sxhfqfij9t4k54","created":"December 23, 2022","expires":"December 23, 2033","created_unix":1671844389,"expires_unix":2018926800},{"name":"gizmoquest","address":"nano_3u5oncyz6jbey1itpid13ekk4tucgne654tfrhfnfzxu7178q53hk3uuxfzk","created":"December 3, 2022","expires":"December 3, 2024","created_unix":1670082195,"expires_unix":1733240580},{"name":"naxno","address":"nano_3gq9x6n1q6padzbu13kdk9khbzxuwnhce64bdmwyhxdccm9d5f6oh6taymga","created":"November 20, 2022","expires":"November 20, 2024","created_unix":1668988408,"expires_unix":1732146780},{"name":"polyrun","address":"nano_3po1yrun1qrproqtq699p748ymduwp856qsk64x4yftca7onp5t1t81mxeeu","created":"November 20, 2022","expires":"November 20, 2024","created_unix":1668971512,"expires_unix":1732129860,"twitter":"polyrunapp","website":"polyrun.app"},{"name":"forest","address":"nano_3aex6th4z1w4dt3emiiaqhga6jaz9jdagad14zkqimx5gykogkcwtm3bk4wf","created":"November 20, 2022","expires":"November 20, 2024","created_unix":1668947309,"expires_unix":1732105680},{"name":"keywordcrypto","status":"active","address":"nano_11wn64njybm6zy3zi7n7znpi5hfb3y3zb4srtot3nkikrknf4qohara8fxx6","created":"November 12, 2022","expires":"November 12, 2028","created_unix":1668230140,"expires_unix":1857618000},{"name":"mnpezz","status":"active","address":"nano_3urn99zwefm5q8miwqkiypfqx3ikh59ujpiuggewnynoke6eqpntgu78do7j","donation_address":"@mnpezz","github":"https://github.com/mnpezz","twitter":"https://twitter.com/mnpezz","mastodon":"xno.social/@mnpezz","freelance":"40 NANO / hr","website":"https://mnpezz.straw.page","name_for_sale":42000,"title":"hello my name is mnpezz","created":"November 10, 2022","expires":"November 11, 2029","created_unix":1668117803,"expires_unix":1889067600,"location":"US-Central","goal_ui":"","metadata":"https://xno.nano.org/images/xno_currencies.gif"},{"name":"avigopal","status":"active","address":"nano_1mz98gg1xnii9mo4aur6ax9xcpayyzexcejzpednpbyk4n1ztzznp635uy9f","created":"November 10, 2022","expires":"November 10, 2024","created_unix":1668068505,"expires_unix":1731226860},{"name":"bank","status":"active","address":"nano_1bank1q3q7x8rimo3hf6qu6ezq3fmtximyt8kggtfaosg8kyr51qsdkm8g45","created":"October 10, 2022","expires":"October 15, 2026","created_unix":1665418910,"expires_unix":1792022400,"title":"Nano.to Bank","github":"nano2dev","twitter":"nano2dev","donation_address":"@development","metadata":"Hello Nano, Again"},{"name":"fabs","status":"active","address":"nano_135rob5ctx5yrjej9fig5gpajez5e5w4f3r3931ga7syp5s5n3a67eubh4jh","created":"October 1, 2022","expires":"October 2, 2029","created_unix":1664647990,"expires_unix":1885608000},{"name":"parkmasterv","status":"active","address":"nano_31fszra4ibwsoe9ju4t18crzeax7ub1c165rbybbmjeyzuk35owyxriofxr3","created":"September 29, 2022","expires":"September 29, 2024","created_unix":1664466131,"expires_unix":1727624520},{"name":"mitu","github":"jaumebosch","twitter":"jaumebosch","address":"nano_33h3n1jsbib3zro5u44e8u6to46semypp5ptnayz5btictt9jiwkk4dt4wpz","created":"July 11, 2022","expires":"July 11, 2024","created_unix":1657554780,"expires_unix":1720670400},{"name":"nautilus","address":"nano_38713x95zyjsqzx6nm1dsom1jmm668owkeb9913ax6nfgj15az3nu8xkx579","created":"June 28, 2022","expires":"June 28, 2024","created_unix":1656471060,"expires_unix":1719547200},{"name":"v","address":"nano_3yrn8bx4itoyc69n6m3m16thms1ckypqpaddqx6wca6a55fqh3b3jc36end4","created":"April 15, 2022","expires":"April 15, 2032","created_unix":1650035460,"expires_unix":1965614400},{"name":"testuser","address":"nano_11qwaxtmb5c7xc16wat5rgirbxzug1kgq8tf996xi8kf5cdcrjyaiy39foun","created":"April 14, 2022","expires":"April 14, 2024","created_unix":1649952540,"expires_unix":1713110940},{"name":"evolution","address":"nano_13fgbyd47hzeus8k5898kpasq7a9d3abi4cej3b9ksrgu9qtzzqia3mssjez","created":"April 1, 2022","expires":"April 1, 2024","created_unix":1648808280,"expires_unix":1711966680},{"name":"allen","address":"nano_3eacxew9rz59uw4kbhry1gamqfs599utcazn9j7yyazw4fyfu7mfo4n7wxim","created":"April 1, 2022","expires":"April 1, 2024","created_unix":1648793400,"expires_unix":1711951800},{"name":"vincent","address":"nano_3rrensztwhbjiys4uxhbccspt9rwn864ii4xj4rfgje7kuau73ayook9cwmz","created":"March 17, 2022","expires":"March 17, 2024","created_unix":1647517740,"expires_unix":1710676140},{"name":"marmol","address":"nano_3tc85bigtima4n5cq9cox1sesudgrckutr75g6d5z8ndojb3ui6hib5gfkra","created":"March 16, 2022","expires":"March 16, 2024","created_unix":1647440460,"expires_unix":1710598860},{"name":"marvin","address":"nano_18wa681dmuicja5rkcyxdzyb1qfeyyz5tkpx1yfwtxg56gdywyne38roiaoc","created":"March 16, 2022","expires":"March 16, 2024","created_unix":1647439260,"expires_unix":1710597660},{"name":"nanogram","address":"nano_3mq1qwxq1t4bk3i96nnnp1rucmo1nxqw7ptasgesscu9ex7fz5uotgd188nu","created":"March 7, 2022","expires":"March 7, 2027","created_unix":1646703240,"expires_unix":1804469640},{"name":"auz","address":"nano_1mfaxxxfzk73jdz1nbjdp6itx8wagm574daritciwhwfrriddt4n68x6gawo","created":"January 18, 2022","expires":"January 18, 2026","created_unix":1642550820,"expires_unix":1768712400},{"name":"Isaac","address":"nano_3h3gyzq5ybbmkjjaoqsd8o4bazfc6madmqihdjcpynfag8uh71aok1qgxt1t","created":"January 11, 2022","expires":"January 11, 2032","created_unix":1641946260,"expires_unix":1957479060},{"name":"Doge","address":"nano_37duxi99ta69cg18jypfjisy14bzouun64f66j6847fbkjffb6aufmca9iaw","created":"January 7, 2022","expires":"January 7, 2029","created_unix":1641586860,"expires_unix":1862456400},{"name":"lakes","address":"nano_1k7z76z9i95yqqzsppyfe9gyfxyymxgcbazywz47hn8gwy3f5aneo9hsb8b4","created":"January 4, 2022","expires":"January 4, 2032","created_unix":1641285180,"expires_unix":1956817980},{"name":"z","address":"nano_1bowyrm18bz4fmedp81xcdt6uyc51z1aua93kgmpwqfqmtt7fc8bgwpebx8e","created":"December 31, 2021","expires":"December 31, 2031","created_unix":1640989200,"expires_unix":1956522000},{"name":"development","goal_ui":"500:Hosting Fund","address":"nano_37y6iq8m1zx9inwkkcgqh34kqsihzpjfwgp9jir8xpb9jrcwhkmoxpo61f4o","created":"December 26, 2021","expires":"December 25, 2033","created_unix":1640552100,"expires_unix":2019099600,"status":"active","title":"Monthly Hosting","github":"nano2dev","mastodon":"xno.social/@nano2dev","twitter":"nano2dev","metadata":"plans=Tip:0.133,Thanks:10,Amazing:100,Huge:250,Gigantic:500","location":"US-East"},{"name":"giveaway","address":"nano_189ketg78s6537xjmacicpstgo9945caa9did3j3dekths4oxdz6cp75udty","created":"December 17, 2021","expires":"December 17, 2031","created_unix":1639775580,"expires_unix":1955308380},{"name":"reserve","address":"nano_189ketg78s6537xjmacicpstgo9945caa9did3j3dekths4oxdz6cp75udty","created":"December 16, 2021","expires":"December 16, 2031","created_unix":1639704840,"expires_unix":1955237640},{"name":"tip","address":"nano_189ketg78s6537xjmacicpstgo9945caa9did3j3dekths4oxdz6cp75udty","created":"December 16, 2021","expires":"December 16, 2031","created_unix":1639701660,"expires_unix":1955234460},{"name":"reps","github":"nano2dev","title":"Nano.to Rep Faucet","goal_ui":"1:Faucet Cycle","address":"nano_1reason1q976g9wkrt69nux7konww46ux73c7xzm7jrm3w4kqdtigym6btq3","created":"December 15, 2021","expires":"December 15, 2031","created_unix":1639622820,"expires_unix":1955155620,"metadata":""},{"name":"whale","address":"nano_19enptkts4xbad3buierfwwebj47osxs6bwc86y4u1zqcwr59gu5xgsq7acr","created":"December 11, 2021","expires":"December 11, 2031","created_unix":1639282980,"expires_unix":1954815780},{"name":"sutton","address":"nano_19enptkts4xbad3buierfwwebj47osxs6bwc86y4u1zqcwr59gu5xgsq7acr","created":"December 9, 2021","expires":"December 9, 2031","created_unix":1639085400,"expires_unix":1954618200},{"name":"shallitap","address":"nano_1ufjwun58x56mw9ksg5qbtyhihbmca8b3ms74hx8q4pdhd8u3yb4jjnkwexx","created":"December 8, 2021","expires":"December 8, 2031","created_unix":1638967320,"expires_unix":1954500120},{"name":"dabossdaus","address":"nano_3whr6wamz3bnr89bh7d4t1my3y8rb16p5qumsjfr1oaipjn7kjxrdcesaobt","created":"December 6, 2021","expires":"December 6, 2024","created_unix":1638834420,"expires_unix":1733461200,"status":"active"},{"name":"silva","address":"nano_1m3cthieds48zqudoeaxn7x137qposw4opz34wursmb8i7439dgq4oyif4p5","created":"December 5, 2021","expires":"September 28, 2055","created_unix":1638724380,"expires_unix":2705716800},{"name":"markkawika","address":"nano_1i6pixerf1dneyf1buji83qpgubebf9u8hg7h4q1o5am7ijbi4caa453u8tp","created":"December 3, 2021","expires":"December 3, 2031","created_unix":1638511320,"expires_unix":1954098660},{"name":"lincoln","address":"nano_1yz149w4sx6p9fj3zksm6ugmqqh4ba4zknmt6bdrn3k7xnkfa14y6gcr41nt","created":"December 2, 2021","expires":"December 2, 2031","created_unix":1638482400,"expires_unix":1954015200},{"name":"beamit","address":"nano_3aak5kadoejmrn37ztsg6m4puezqjmnegaw995ymiiim1xehaz915buww7gn","created":"December 2, 2021","expires":"December 2, 2031","created_unix":1638468300,"expires_unix":1954001100},{"name":"kylebrowning","address":"nano_3sqincrthwbbipk7yt1ytgjhyzco6f5fbme76nd8bzmxpgqqcj49ark9b7y9","created":"December 1, 2021","expires":"December 1, 2031","created_unix":1638374280,"expires_unix":1953907080},{"status":"active","github":"vinibarbosabr","twitter":"vinibarbosabr","name":"vinibarbosa","address":"nano_3fqhodt9xaoq34bbcdr7pn951ikqexjjtfm3b9br8kwwwzjf9mg6qxujm644","created":"December 1, 2021","expires":"December 1, 2033","created_unix":1638370380,"expires_unix":2017026000},{"name":"jefferson","address":"nano_3siiges791sutiezb6wn1y7wwc8tcywcbkrktmnnhjmg9gqpx68bqp894n8r","created":"December 1, 2021","expires":"December 1, 2031","created_unix":1638365520,"expires_unix":1953898320},{"name":"boris","address":"nano_1aox8g461sodeumcoecopihotncgx1499c6aho9k1bf6if3wn9pxgbeeb46r","created":"November 29, 2021","expires":"November 30, 2031","created_unix":1638213900,"expires_unix":1953833100},{"name":"atxmj","address":"nano_1dctqbmqxfppo9pswbm6kg9d4s4mbraqn8i4m7ob9gnzz91aurmuho48jx3c","created":"November 29, 2021","expires":"November 29, 2033","created_unix":1638200760,"expires_unix":2016853200,"twitter":"@atxmj","mastodon":"@atxmj"},{"name":"zatoshi","address":"nano_1xbbhicqmjw6rnatc6w78ynjyio6n7xc4fzh6rnbcz3ke6fmadcaatinuqgq","created":"November 24, 2021","expires":"November 24, 2025","created_unix":1637764860,"expires_unix":1763995260},{"name":"fuckbtc","address":"nano_3k3d9t5qcdofi6m7orqgzu4c56ok49qt84j6ege167wsizd9gjmff4xphtja","created":"November 23, 2021","expires":"November 23, 2031","created_unix":1637658300,"expires_unix":1953191100},{"name":"razer","address":"nano_37m8eji965i41an7d5jzmu9zadzei9csi3q1azy8t3fiu38119cmhdotdekp","created":"November 23, 2021","expires":"November 23, 2031","created_unix":1637648280,"expires_unix":1953181080},{"name":"pj","address":"nano_3so1h4mz5zbm6mo3xbhaxafkrgo4mwic47i7px7tw4tptec5781ma9wknte5","created":"November 22, 2021","expires":"November 22, 2031","created_unix":1637613720,"expires_unix":1953146520},{"name":"mars","address":"nano_1n4tzxgbixfspfqj3eawsaf738p4m3w45frtxbqexea8o7b55jzfonztz7ab","created":"November 22, 2021","expires":"November 22, 2031","created_unix":1637591100,"expires_unix":1953123900},{"name":"ryan","address":"nano_3ifayyta9r6ddz7kxmyyh8uop39w3qcinoryp4ypemr3syzub6f1ipafo46k","created":"November 22, 2021","expires":"November 22, 2031","created_unix":1637561520,"expires_unix":1953094320},{"name":"faucet","github":"nano2dev","title":"Nano.to Name Faucet","goal_ui":"1:Faucet Cycle","address":"nano_1faucet7b6xjyha7m13objpn5ubkquzd6ska8kwopzf1ecbfmn35d1zey3ys","created":"November 21, 2021","expires":"November 20, 2031","created_unix":1637555640,"expires_unix":1952917200,"twitter":"","mastodon":"","location":"Us-East","metadata":""},{"name":"133","address":"nano_3dzqhbcwnyi7fkkr4b3fbtk8arnzn3xzmou5xeih3csw6xce7s699a3n5hgt","created":"November 21, 2021","expires":"November 21, 2031","created_unix":1637538240,"expires_unix":1953003600},{"name":"kris","address":"nano_1cqyojumzgsbu87idhoeufnzy75j4cqin83ksktaw7qw7k5ij6hbnpybrdch","created":"November 21, 2021","expires":"November 21, 2031","created_unix":1637525160,"expires_unix":1953057960},{"name":"mustafa","address":"nano_19dkr6tcx9ta8daz4qiex8537rkmunwrhjgm7xybidruyr1hg4fm4bpynjxy","created":"November 21, 2021","expires":"November 21, 2031","created_unix":1637490480,"expires_unix":1953023280},{"name":"fosse","address":"nano_3fosse98985a3x5tqg76knjo6xo7hyh38xzazsncu3q5w78f3uf4ri55nskh","created":"November 20, 2021","expires":"November 20, 2023","created_unix":1637464860,"expires_unix":1700536860,"github":"fossephate"},{"name":"yoel","address":"nano_1ptwyknwf5w35hfmsgyfj7ctjmeh1o5cb8zpdck8mjs1tmko46z1uf8row4i","created":"November 20, 2021","expires":"November 20, 2032","created_unix":1637438100,"expires_unix":1984539600},{"status":"active","github":"humble-nano","name":"humblenano","twitter":"humblenano","address":"nano_3fq1wt45hpe9a6phqh3ht5y9xusa46z1mszduw6nq47opcxhfa71cnfo1maa","created":"November 20, 2021","expires":"November 21, 2032","created_unix":1637429820,"expires_unix":1984626000,"title":"Node owner for the digital currency #nano. Always try to find special hardware/configurations or locations. Beefy #nano nodes :)","mastodon":"https://mastodon.social/@humblenano","rep_address":"nano_3n7ky76t4g57o9skjawm8pprooz1bminkbeegsyt694xn6d31c6s744fjzzz","donation_address":"nano_3fq1wt45hpe9a6phqh3ht5y9xusa46z1mszduw6nq47opcxhfa71cnfo1maa","metadata":"https://nanswap.com/art/assets/LRBaXOPbQNK"},{"name":"kedrin","address":"nano_15nt4cis8ac184q9mj7bedww9ay9zh5jk5k7sj9ypmz44twjcpz3cn6oijir","created":"November 19, 2021","expires":"December 20, 2024","created_unix":1637340480,"expires_unix":1734670800},{"name":"basedlemahieu","address":"nano_13djxwu4bbih85kc5uq9949pjr7d3ax5csntwgwi4x71aw1shcaim3ujght6","created":"November 19, 2021","expires":"December 19, 2031","created_unix":1637337300,"expires_unix":1955462100},{"name":"eats","address":"nano_1m747htgqw5fbhuafuswpwuc18y7zjwqntbi1fynehmz1zaqoj1puj7h96oj","donation_address":"@faucet","created":"November 10, 2021","expires":"November 11, 2031","created_unix":1636590420,"expires_unix":1952209620},{"name":"miami","for_sale":"500","address":"nano_1hcbxih53x614db1c5r6qdxhupihpxs1yhugr7z863k11wz41p3uh15gdj85","donation_address":"","created":"November 7, 2021","expires":"December 2, 2031","created_unix":1636303080,"expires_unix":1953997860,"title":"Miami, Florida","github":"","twitter":"","mastodon":"","location":"","goal_ui":"","rep_address":"","metadata":"Hello Miami"},{"name":"nyano","address":"nano_1o7zjdda1jkuq8rb635j3riqr179wb5iaug3hnkxgcapir1e7198hip5r9uc","created":"November 6, 2021","expires":"November 6, 2036","created_unix":1636180020,"expires_unix":2109560400},{"name":"formsend","address":"nano_1form6qya137cg96u8tfp8feggp8wghomf6epfaxgsg95zkiuh18gqpdgds3","donation_address":"@faucet","created":"October 28, 2021","expires":"October 29, 2031","created_unix":1635438600,"expires_unix":1951057800},{"name":"saker","address":"nano_1saker3z4arb3kjxa765z31w7f3t3gzm7hcwda87eo6bw5xirswhtomztnz4","created":"October 20, 2021","expires":"October 20, 2026","created_unix":1634771280,"expires_unix":1792537680},{"name":"xanza","address":"nano_19ditzdezoffa3g8hjpcoqb6c6q5zjq13u1coqtzrwh9wm6e8j4zeom3i5gw","created":"October 20, 2021","expires":"October 20, 2036","created_unix":1634771100,"expires_unix":2108088000},{"name":"me","address":"nano_1nthzryoextiqzmhus1b1o8th3si9ctmzodoy86shmmqefhr57orf5esmbk7","created":"October 17, 2021","expires":"June 5, 2024","created_unix":1634496420,"expires_unix":1717624320},{"name":"elon","address":"nano_3mch77jubq3ttit6cndrsscheg9fzqzq1eoyy6dxak3ukeptkkzw3n4mkacn","created":"October 17, 2021","expires":"November 20, 2028","created_unix":1634496360,"expires_unix":1858309200},{"name":"chris","address":"nano_1n3xshcr1iqin1n5dtkag1g7zp9bwpfitjqoyc5e6ujjezbum9bk7zttrqei","created":"October 17, 2021","expires":"June 5, 2024","created_unix":1634496360,"expires_unix":1717624200},{"name":"michael","address":"nano_3qrknjfmy33jspmzbssrbpskzdi8qibq9zztr6rn7kx8ai3yzyb8569fmfpf","created":"October 17, 2021","expires":"November 20, 2028","created_unix":1634496240,"expires_unix":1858309200},{"name":"seth","address":"nano_3bk9irxi7wbupw8bec9951jhyfzpghmjtrdhgprh95ezix3345h4dhyrksrx","created":"September 20, 2021","expires":"September 20, 2031","created_unix":1632184320,"expires_unix":1947717120},{"name":"ai","address":"nano_1turing7pygyaa9ozji5dwdh43rd8fyfkwbsq5ikua6ksaaoq761586yzpde","created":"September 19, 2021","expires":"September 19, 2031","created_unix":1632092820,"expires_unix":1947625620},{"name":"pico","address":"nano_3gf57qk4agze3ozwfhe8w6oap3jmdb4ofe9qo1ra3wcs5jc888rwyt61ymea","created":"September 19, 2021","expires":"September 19, 2031","created_unix":1632027000,"expires_unix":1947559800},{"name":"yo","address":"nano_3gf57qk4agze3ozwfhe8w6oap3jmdb4ofe9qo1ra3wcs5jc888rwyt61ymea","created":"September 18, 2021","expires":"September 18, 2031","created_unix":1631999040,"expires_unix":1947531840},{"name":"Charlie","address":"nano_3ixy7oqwthwf46zn3t811n1hpzkotumfzxwno9zktt93p5gt8pifxo7pipgq","created":"September 18, 2021","expires":"September 18, 2031","created_unix":1631973120,"expires_unix":1947505920},{"name":"Tya","address":"nano_15h1wrpwwc1wszaqbmpcu4ehgjree48qmo9o49aqj8mcdmmidwaryz4uiq7n","created":"September 18, 2021","expires":"September 19, 2031","created_unix":1631967240,"expires_unix":1947586440},{"name":"playnano","address":"nano_3pnano3q5pmrknkjdr7bmjb59qctyyw6k65wfodk63axxh9csebpcczzf3da","created":"September 18, 2021","expires":"September 18, 2031","created_unix":1631964720,"expires_unix":1947497520},{"name":"joel","address":"nano_3usia4i7twbocrjruyw6h6gznif641px6gqxghhn591bw98m36c9jbb3fzmr","created":"September 17, 2021","expires":"September 17, 2031","created_unix":1631936100,"expires_unix":1947468900},{"name":"jason","address":"nano_19qfpbo71qhbzrq8nh1uqr1hpq3pneywnnnrcjomkaqi9k1kigwrm8qxabka","created":"September 17, 2021","expires":"September 17, 2031","created_unix":1631933640,"expires_unix":1947466440},{"name":"you","address":"nano_3gf57qk4agze3ozwfhe8w6oap3jmdb4ofe9qo1ra3wcs5jc888rwyt61ymea","created":"September 17, 2021","expires":"September 17, 2031","created_unix":1631929440,"expires_unix":1947462240},{"name":"beer","address":"nano_3banannooopfbie7zxbq75h9ug6gdxb5xugfpap78g65q6sxhfqfij9t4k54","created":"September 17, 2021","expires":"October 17, 2031","created_unix":1631922300,"expires_unix":1950047100},{"name":"sam","address":"nano_33f1c6pxqeqzfmox3k36ea7fcwemro8ihehtnoeokymfhjxny3bsbokng81s","created":"September 17, 2021","expires":"November 26, 2031","created_unix":1631919720,"expires_unix":1953504420},{"name":"australia","address":"nano_155by537ur6fp854oua7siw7z4sm935u75rnqzwz7xffcfj7f7u63ggexoop","created":"September 17, 2021","expires":"September 17, 2031","created_unix":1631918280,"expires_unix":1947451080},{"name":"banano","address":"nano_3banannooopfbie7zxbq75h9ug6gdxb5xugfpap78g65q6sxhfqfij9t4k54","created":"September 17, 2021","expires":"October 17, 2031","created_unix":1631916180,"expires_unix":1950058800},{"name":"kraken","exchange_hot_wallet":true,"do_not_send_donation":true,"address":"nano_3cpz7oh9qr5b7obbcb5867omqf8esix4sdd5w6mh8kkknamjgbnwrimxsaaf","created":"September 17, 2021","expires":"October 17, 2031","created_unix":1631915940,"expires_unix":1950040740},{"name":"tally","address":"nano_3spiffyfbcchbm6ftbzwk7cjcc9a3r3j3asccbew6p7tq3azu9eh5t47j3id","created":"September 17, 2021","expires":"October 17, 2025","created_unix":1631908500,"expires_unix":1760729520},{"name":"martynas","address":"nano_3pqf4wc8qgn8i686p8nx36hmjprg6wo4r8i3nr7nmmosc4sgx87pj97bg516","created":"September 17, 2021","expires":"September 17, 2031","created_unix":1631905680,"expires_unix":1947438480},{"name":"dennis","address":"nano_3a1wnhir8gcxnqxrpydhqp888hgex39iqrr3sps1iaprncpj5yazmwt79umc","created":"September 17, 2021","expires":"September 17, 2031","created_unix":1631903520,"expires_unix":1947436320},{"name":"nanoqueen","address":"nano_3wy8ossia4kq1xkht7hezjm3iznqf3ougz54fa95rfrdjircbxut4ycboobs","created":"September 17, 2021","expires":"October 17, 2025","created_unix":1631894220,"expires_unix":1760716620},{"name":"Ben","address":"nano_3odn1ypkz1omjs9n9es1oidgw68gob8oneu3cqsma9nttbpaxwpsffiot456","created":"September 17, 2021","expires":"September 18, 2025","created_unix":1631889840,"expires_unix":1758181740},{"status":"active","name":"moon","goal_ui":"45000:First Super Node","title":"US-Obelisk-1 Fund","description":"US-Obelisk-1. <a target='_blank' href='https://blog.nano.to/introducing-nano-obelisk-a-self-sustaining-super-node' style='border-bottom: 1px solid'>Full Story</a>","github":"nano2dev","address":"nano_1tower1hbm11aq5hx5d7kd5wff6b4czr74kxatc6g5ouot54nqjkhu4j7jr6","image":"https://blog.nano.to/images/super-node/hero.jpeg","website":"https://blog.nano.to/images/super-node/hero.jpeg","created":"September 15, 2021","expires":"September 16, 2030","created_unix":1631748420,"expires_unix":1915831620,"twitter":"nano2dev","mastodon":"nano2dev","donation_address":"","metadata":"plans=Tip:5,Hobby:100,Backer:1000,Investor:15000,Co-Owner:45000&custom=true"},{"name":"alberto","address":"nano_3qr5jjnoqnk9fidfqxe7kewzawpx4yytrydkxonmso4jghzispgkszp8awp7","created":"September 15, 2021","expires":"October 16, 2031","created_unix":1631733060,"expires_unix":1949941200},{"status":"active","github":"nano2dev","discord":"nano2dev","twitter":"nano2dev","name":"esteban","title":"Software Wizard","mastodon":"xno.social/@nano2dev","address":"nano_1m747htgqw5fbhuafuswpwuc18y7zjwqntbi1fynehmz1zaqoj1puj7h96oj","donation_address":"@development","created":"September 13, 2021","expires":"November 7, 2024","created_unix":1631584140,"expires_unix":1730955600,"location":"Us-East","goal_ui":"100:Monthly Hosting","metadata":"Hello World, Again"}]